{
    "categories": [
      {
        "name": "shopping",
        "locations": [
          {
            "name": "Mall of India",
            "lat": 28.5672,
            "lon": 77.3206,
            "info": "Largest mall in India.",
            "image": "mall.jpg"
          },
          {
            "name": "Dilli Haat",
            "lat": 28.5686,
            "lon": 77.2067,
            "info": "Cultural shopping destination.",
            "image": "haat.jpg"
          },
            {
                "name": "Sarojini Nagar Market",
                "lat": 28.5748,
                "lon": 77.2044,
                "info": "Famous street market.",
                "image": "sarojini.jpg"
            },
            {
                "name": "Chandni Chowk",
                "lat": 28.6506,
                "lon": 77.2305,
                "info": "Oldest market in Delhi.",
                "image": "chandni.jpg"
            },
            {
                "name": "Connaught Place",
                "lat": 28.6315,
                "lon": 77.2167,
                "info": "Popular shopping destination.",
                "image": "cp.jpg"
            },
            {
                "name": "Karol Bagh",
                "lat": 28.6506,
                "lon": 77.1885,
                "info": "Shopping hub.",
                "image": "karol.jpg"
            },
            {
                "name": "Lajpat Nagar",
                "lat": 28.5677,
                "lon": 77.2410,
                "info": "Famous market.",
                "image": "lajpat.jpg"
            }
        ]
      },
      {
        "name": "attractions",
        "locations": [
          {
            "name": "India Gate",
            "lat": 28.6129,
            "lon": 77.2295,
            "info": "War memorial.",
            "image": "indiagate.jpg"
          },
            {
                "name": "Qutub Minar",
                "lat": 28.5245,
                "lon": 77.1855,
                "info": "Tallest brick minaret.",
                "image": "qutub.jpg"
            },
            {
                "name": "Red Fort",
                "lat": 28.6562,
                "lon": 77.2410,
                "info": "Historic fort.",
                "image": "redfort.jpg"
            },
            {
                "name": "Lotus Temple",
                "lat": 28.5535,
                "lon": 77.2588,
                "info": "Bahá'í House of Worship.",
                "image": "lotus.jpg"
            },
            {
                "name": "Akshardham Temple",
                "lat": 28.6127,
                "lon": 77.2773,
                "info": "Hindu temple.",
                "image": "akshardham.jpg"
            },
            {
                "name": "Jantar Mantar",
                "lat": 28.6271,
                "lon": 77.2166,
                "info": "Astronomical observatory.",
                "image": "jantar.jpg"
            }
        ]
      },
      {
        "name": "adventure",
        "locations": [
          {
            "name": "Adventure Park",
            "lat": 28.4595,
            "lon": 77.0266,
            "info": "Fun adventure activities.",
            "image": "park.jpg"
          },
            {
                "name": "Rock Climbing",
                "lat": 28.5355,
                "lon": 77.2410,
                "info": "Rock climbing experience.",
                "image": "rock.jpg"
            },
            {
                "name": "Hot Air Balloon",
                "lat": 28.4595,
                "lon": 77.0266,
                "info": "Hot air balloon ride.",
                "image": "balloon.jpg"
            },
            {
                "name": "Paragliding",
                "lat": 28.4595,
                "lon": 77.0266,
                "info": "Paragliding experience.",
                "image": "para.jpg"
            },
            {
                "name": "Bungee Jumping",
                "lat": 28.4595,
                "lon": 77.0266,
                "info": "Bungee jumping experience.",
                "image": "bungee.jpg"
            }
        ]
      }
    ]
  }
  